{
"type": "FeatureCollection",
"name": "candidate_sites",
"crs": { "type": "name", "properties": { "name": "urn:ogc:def:crs:OGC:1.3:CRS84" } },
"features": [
{ "type": "Feature", "properties": { "HydroID": 201484795, "staSeq": 14863, "locationNa": "Rocky Brook", "ylat": 42.0134, "xlong": -71.802, "diatom": 0, "bug": 1, "NextDown": 2820784759, "SqMi": 5.1818, "CFPct_1985": 0.86728972, "CFPct_1990": 0.844167532, "CFPct_1995": 0.843959848, "CFPct_2002": 0.836413984, "CFPct_2006": 0.827206646, "CFPct_2010": 0.820906888, "CFPct_2015": 0.825406715, "s_type": "B" }, "geometry": { "type": "Point", "coordinates": [ -71.802, 42.0134 ] } },
{ "type": "Feature", "properties": { "HydroID": 201486031, "staSeq": 16088, "locationNa": "Lebanon Brook", "ylat": 41.9945, "xlong": -72.0836, "diatom": 0, "bug": 1, "NextDown": 1007429853, "SqMi": 2.46754, "CFPct_1985": 0.792181369, "CFPct_1990": 0.795378579, "CFPct_1995": 0.791745386, "CFPct_2002": 0.796831856, "CFPct_2006": 0.791745386, "CFPct_2010": 0.79595989, "CFPct_2015": 0.79276268, "s_type": "B" }, "geometry": { "type": "Point", "coordinates": [ -72.0836, 41.9945 ] } },
{ "type": "Feature", "properties": { "HydroID": 201486633, "staSeq": 14866, "locationNa": "Stickney Hill Brook", "ylat": 41.9833, "xlong": -72.2179, "diatom": 1, "bug": 0, "NextDown": 604459931, "SqMi": 2.223601, "CFPct_1985": 0.684635249, "CFPct_1990": 0.662685604, "CFPct_1995": 0.657520981, "CFPct_2002": 0.663008393, "CFPct_2006": 0.653808909, "CFPct_2010": 0.65203357, "CFPct_2015": 0.654293092, "s_type": "D" }, "geometry": { "type": "Point", "coordinates": [ -72.2179, 41.9833 ] } },
{ "type": "Feature", "properties": { "HydroID": 201486665, "staSeq": 17405, "locationNa": "Roaring Brook", "ylat": 41.9818, "xlong": -72.2215, "diatom": 0, "bug": 1, "NextDown": 1007433260, "SqMi": 4.112914, "CFPct_1985": 0.625359979, "CFPct_1990": 0.598481543, "CFPct_1995": 0.591936469, "CFPct_2002": 0.595165372, "CFPct_2006": 0.590365651, "CFPct_2010": 0.58373331, "CFPct_2015": 0.583558775, "s_type": "B" }, "geometry": { "type": "Point", "coordinates": [ -72.2215, 41.9818 ] } },
{ "type": "Feature", "properties": { "HydroID": 201486965, "staSeq": 17852, "locationNa": "Shady Oak School House Brook", "ylat": 41.89866, "xlong": -71.80928, "diatom": 0, "bug": 1, "NextDown": 201486699, "SqMi": 1.152631, "CFPct_1985": 0.758029311, "CFPct_1990": 0.73744933, "CFPct_1995": 0.695042095, "CFPct_2002": 0.684128469, "CFPct_2006": 0.658559401, "CFPct_2010": 0.690988463, "CFPct_2015": 0.680386654, "s_type": "B" }, "geometry": { "type": "Point", "coordinates": [ -71.80928, 41.89866 ] } },
{ "type": "Feature", "properties": { "HydroID": 201487925, "staSeq": 14997, "locationNa": "East Branch Salmon Brook", "ylat": 42.0135, "xlong": -72.8435, "diatom": 1, "bug": 0, "NextDown": 1410414841, "SqMi": 5.043497, "CFPct_1985": 0.562255564, "CFPct_1990": 0.528123444, "CFPct_1995": 0.521652563, "CFPct_2002": 0.513546185, "CFPct_2006": 0.510559625, "CFPct_2010": 0.503875418, "CFPct_2015": 0.496551234, "s_type": "D" }, "geometry": { "type": "Point", "coordinates": [ -72.8435, 42.0135 ] } },
{ "type": "Feature", "properties": { "HydroID": 201487966, "staSeq": 16387, "locationNa": "Hurricane Brook", "ylat": 42.033, "xlong": -72.9207, "diatom": 0, "bug": 1, "NextDown": 604464029, "SqMi": 1.815646, "CFPct_1985": 0.62556807, "CFPct_1990": 0.625172891, "CFPct_1995": 0.62892709, "CFPct_2002": 0.610353685, "CFPct_2006": 0.629322268, "CFPct_2010": 0.597510373, "CFPct_2015": 0.591582691, "s_type": "B" }, "geometry": { "type": "Point", "coordinates": [ -72.9207, 42.033 ] } },
{ "type": "Feature", "properties": { "HydroID": 201488089, "staSeq": 16501, "locationNa": "BELDEN BROOK", "ylat": 42.0122, "xlong": -72.8775, "diatom": 0, "bug": 1, "NextDown": 604464268, "SqMi": 2.491864, "CFPct_1985": 0.739562338, "CFPct_1990": 0.739994241, "CFPct_1995": 0.737258854, "CFPct_2002": 0.722574143, "CFPct_2006": 0.704002303, "CFPct_2010": 0.682119205, "CFPct_2015": 0.682119205, "s_type": "B" }, "geometry": { "type": "Point", "coordinates": [ -72.8775, 42.0122 ] } },
{ "type": "Feature", "properties": { "HydroID": 201488910, "staSeq": 17427, "locationNa": "East Branch Stonehouse Brook", "ylat": 41.8186, "xlong": -72.1316, "diatom": 0, "bug": 1, "NextDown": 604467019, "SqMi": 1.469892, "CFPct_1985": 0.679775281, "CFPct_1990": 0.65925745, "CFPct_1995": 0.65999023, "CFPct_2002": 0.648265755, "CFPct_2006": 0.650708354, "CFPct_2010": 0.603321935, "CFPct_2015": 0.606741573, "s_type": "B" }, "geometry": { "type": "Point", "coordinates": [ -72.1316, 41.8186 ] } },
{ "type": "Feature", "properties": { "HydroID": 201488953, "staSeq": 14880, "locationNa": "Sages Ravine Brook", "ylat": 42.0495, "xlong": -73.4301, "diatom": 0, "bug": 1, "NextDown": 1007444711, "SqMi": 3.561445, "CFPct_1985": 0.83684582, "CFPct_1990": 0.828678028, "CFPct_1995": 0.782998891, "CFPct_2002": 0.821115257, "CFPct_2006": 0.831803973, "CFPct_2010": 0.821921952, "CFPct_2015": 0.830493093, "s_type": "B" }, "geometry": { "type": "Point", "coordinates": [ -73.4301, 42.0495 ] } },
{ "type": "Feature", "properties": { "HydroID": 201489820, "staSeq": 16125, "locationNa": "Whiting Brook", "ylat": 41.973, "xlong": -73.3178, "diatom": 1, "bug": 0, "NextDown": 201489894, "SqMi": 1.264523, "CFPct_1985": 0.844318182, "CFPct_1990": 0.843465909, "CFPct_1995": 0.833806818, "CFPct_2002": 0.830681818, "CFPct_2006": 0.840625, "CFPct_2010": 0.836647727, "CFPct_2015": 0.840909091, "s_type": "D" }, "geometry": { "type": "Point", "coordinates": [ -73.3178, 41.973 ] } },
{ "type": "Feature", "properties": { "HydroID": 201489974, "staSeq": 16114, "locationNa": "Rugg Brook", "ylat": 41.9328, "xlong": -73.1214, "diatom": 0, "bug": 1, "NextDown": 604469582, "SqMi": 2.501247, "CFPct_1985": 0.75093364, "CFPct_1990": 0.741453605, "CFPct_1995": 0.729675381, "CFPct_2002": 0.726659006, "CFPct_2006": 0.707411663, "CFPct_2010": 0.704969836, "CFPct_2015": 0.707411663, "s_type": "B" }, "geometry": { "type": "Point", "coordinates": [ -73.1214, 41.9328 ] } },
{ "type": "Feature", "properties": { "HydroID": 201490239, "staSeq": 14523, "locationNa": "Burton Brook", "ylat": 41.9667, "xlong": -73.4341, "diatom": 1, "bug": 0, "NextDown": 604470635, "SqMi": 3.720943, "CFPct_1985": 0.709509587, "CFPct_1990": 0.685615185, "CFPct_1995": 0.691492437, "CFPct_2002": 0.643799981, "CFPct_2006": 0.680412371, "CFPct_2010": 0.671259274, "CFPct_2015": 0.691396088, "s_type": "D" }, "geometry": { "type": "Point", "coordinates": [ -73.4341, 41.9667 ] } },
{ "type": "Feature", "properties": { "HydroID": 201490357, "staSeq": 16139, "locationNa": "Brown Brook", "ylat": 41.9267, "xlong": -73.2799, "diatom": 0, "bug": 1, "NextDown": 2216393202, "SqMi": 5.602963, "CFPct_1985": 0.938164128, "CFPct_1990": 0.931890923, "CFPct_1995": 0.914927666, "CFPct_2002": 0.917488158, "CFPct_2006": 0.926961977, "CFPct_2010": 0.91838433, "CFPct_2015": 0.924849571, "s_type": "B" }, "geometry": { "type": "Point", "coordinates": [ -73.2799, 41.9267 ] } },
{ "type": "Feature", "properties": { "HydroID": 201490398, "staSeq": 16124, "locationNa": "Flat Brook", "ylat": 41.938249, "xlong": -73.321123, "diatom": 0, "bug": 1, "NextDown": 604470971, "SqMi": 2.977659, "CFPct_1985": 0.675135461, "CFPct_1990": 0.6653823, "CFPct_1995": 0.661529199, "CFPct_2002": 0.646357616, "CFPct_2006": 0.657194461, "CFPct_2010": 0.649969898, "CFPct_2015": 0.658157736, "s_type": "B" }, "geometry": { "type": "Point", "coordinates": [ -73.321123, 41.938249 ] } },
{ "type": "Feature", "properties": { "HydroID": 201490713, "staSeq": 20129, "locationNa": "Ocain Brook", "ylat": 41.899369, "xlong": -73.264893, "diatom": 0, "bug": 1, "NextDown": 604472069, "SqMi": 2.306653, "CFPct_1985": 0.65381626, "CFPct_1990": 0.649308254, "CFPct_1995": 0.639825898, "CFPct_2002": 0.645577491, "CFPct_2006": 0.619928494, "CFPct_2010": 0.621638427, "CFPct_2015": 0.624747396, "s_type": "B" }, "geometry": { "type": "Point", "coordinates": [ -73.264893, 41.899369 ] } },
{ "type": "Feature", "properties": { "HydroID": 201490956, "staSeq": 16127, "locationNa": "Jakes Brook", "ylat": 41.864151, "xlong": -73.167442, "diatom": 1, "bug": 1, "NextDown": 604472899, "SqMi": 1.690896, "CFPct_1985": 0.74199024, "CFPct_1990": 0.734139614, "CFPct_1995": 0.730744749, "CFPct_2002": 0.73498833, "CFPct_2006": 0.736473584, "CFPct_2010": 0.734563972, "CFPct_2015": 0.734351793, "s_type": "DB" }, "geometry": { "type": "Point", "coordinates": [ -73.167442, 41.864151 ] } },
{ "type": "Feature", "properties": { "HydroID": 201491329, "staSeq": 16962, "locationNa": "PHELPS BROOK", "ylat": 41.799811, "xlong": -72.964813, "diatom": 0, "bug": 1, "NextDown": 1007456505, "SqMi": 3.152793, "CFPct_1985": 0.522921169, "CFPct_1990": 0.517574792, "CFPct_1995": 0.496871801, "CFPct_2002": 0.489477875, "CFPct_2006": 0.511659652, "CFPct_2010": 0.508588329, "CFPct_2015": 0.504038221, "s_type": "B" }, "geometry": { "type": "Point", "coordinates": [ -72.964813, 41.799811 ] } },
{ "type": "Feature", "properties": { "HydroID": 201491345, "staSeq": 16035, "locationNa": "Nickelmine Brook", "ylat": 41.8342, "xlong": -73.1786, "diatom": 0, "bug": 1, "NextDown": 604474088, "SqMi": 1.878193, "CFPct_1985": 0.565175841, "CFPct_1990": 0.5625, "CFPct_1995": 0.557530581, "CFPct_2002": 0.522553517, "CFPct_2006": 0.526567278, "CFPct_2010": 0.501529052, "CFPct_2015": 0.511276758, "s_type": "B" }, "geometry": { "type": "Point", "coordinates": [ -73.1786, 41.8342 ] } },
{ "type": "Feature", "properties": { "HydroID": 201491526, "staSeq": 16028, "locationNa": "Carse Brook", "ylat": 41.8552, "xlong": -73.3755, "diatom": 0, "bug": 1, "NextDown": 1813422107, "SqMi": 5.380914, "CFPct_1985": 0.684235075, "CFPct_1990": 0.679570896, "CFPct_1995": 0.654317697, "CFPct_2002": 0.671308635, "CFPct_2006": 0.668376866, "CFPct_2010": 0.650253198, "CFPct_2015": 0.673773987, "s_type": "B" }, "geometry": { "type": "Point", "coordinates": [ -73.3755, 41.8552 ] } },
{ "type": "Feature", "properties": { "HydroID": 201491867, "staSeq": 19938, "locationNa": "Mint Brook", "ylat": 41.64057, "xlong": -72.33888, "diatom": 0, "bug": 1, "NextDown": 201491996, "SqMi": 1.542864, "CFPct_1985": 0.639618693, "CFPct_1990": 0.62683097, "CFPct_1995": 0.615205766, "CFPct_2002": 0.616600791, "CFPct_2006": 0.593582888, "CFPct_2010": 0.582190188, "CFPct_2015": 0.587770286, "s_type": "B" }, "geometry": { "type": "Point", "coordinates": [ -72.33888, 41.64057 ] } },
{ "type": "Feature", "properties": { "HydroID": 201492240, "staSeq": 16110, "locationNa": "Mott Hill Brook", "ylat": 41.6615, "xlong": -72.5365, "diatom": 0, "bug": 1, "NextDown": 604476531, "SqMi": 2.852909, "CFPct_1985": 0.85254152, "CFPct_1990": 0.833920483, "CFPct_1995": 0.825868143, "CFPct_2002": 0.73905385, "CFPct_2006": 0.74018621, "CFPct_2010": 0.740563664, "CFPct_2015": 0.738550579, "s_type": "B" }, "geometry": { "type": "Point", "coordinates": [ -72.5365, 41.6615 ] } },
{ "type": "Feature", "properties": { "HydroID": 201492296, "staSeq": 19940, "locationNa": "Gunn Brook", "ylat": 41.800009, "xlong": -73.37902, "diatom": 0, "bug": 1, "NextDown": 604476883, "SqMi": 2.291014, "CFPct_1985": 0.61874902, "CFPct_1990": 0.607932278, "CFPct_1995": 0.608402571, "CFPct_2002": 0.603856404, "CFPct_2006": 0.594137012, "CFPct_2010": 0.587396144, "CFPct_2015": 0.594607305, "s_type": "B" }, "geometry": { "type": "Point", "coordinates": [ -73.37902, 41.800009 ] } },
{ "type": "Feature", "properties": { "HydroID": 201492640, "staSeq": 16535, "locationNa": "BUCK BROOK", "ylat": 41.6228, "xlong": -72.558, "diatom": 0, "bug": 1, "NextDown": 604478022, "SqMi": 1.560934, "CFPct_1985": 0.73426734, "CFPct_1990": 0.724391364, "CFPct_1995": 0.729214515, "CFPct_2002": 0.711529628, "CFPct_2006": 0.728066146, "CFPct_2010": 0.71405604, "CFPct_2015": 0.716123105, "s_type": "B" }, "geometry": { "type": "Point", "coordinates": [ -72.558, 41.6228 ] } },
{ "type": "Feature", "properties": { "HydroID": 201492654, "staSeq": 17781, "locationNa": "Hetchel Swamp Brook", "ylat": 41.48101, "xlong": -71.83706, "diatom": 0, "bug": 1, "NextDown": 201492977, "SqMi": 2.015106, "CFPct_1985": 0.82977208, "CFPct_1990": 0.826745014, "CFPct_1995": 0.773326211, "CFPct_2002": 0.65491453, "CFPct_2006": 0.646011396, "CFPct_2010": 0.646545584, "CFPct_2015": 0.641203704, "s_type": "B" }, "geometry": { "type": "Point", "coordinates": [ -71.83706, 41.48101 ] } },
{ "type": "Feature", "properties": { "HydroID": 201492774, "staSeq": 17640, "locationNa": "Kent Falls Brook", "ylat": 41.76292, "xlong": -73.399134, "diatom": 0, "bug": 1, "NextDown": 604478321, "SqMi": 2.117268, "CFPct_1985": 0.736940299, "CFPct_1990": 0.704545455, "CFPct_1995": 0.713704206, "CFPct_2002": 0.716078697, "CFPct_2006": 0.697082768, "CFPct_2010": 0.686567164, "CFPct_2015": 0.690807327, "s_type": "B" }, "geometry": { "type": "Point", "coordinates": [ -73.399134, 41.76292 ] } },
{ "type": "Feature", "properties": { "HydroID": 201493154, "staSeq": 16119, "locationNa": "Day Pond Brook", "ylat": 41.5623, "xlong": -72.4338, "diatom": 0, "bug": 1, "NextDown": 201493176, "SqMi": 1.417421, "CFPct_1985": 0.639534884, "CFPct_1990": 0.627401416, "CFPct_1995": 0.621587462, "CFPct_2002": 0.613751264, "CFPct_2006": 0.613498483, "CFPct_2010": 0.614762386, "CFPct_2015": 0.614762386, "s_type": "B" }, "geometry": { "type": "Point", "coordinates": [ -72.4338, 41.5623 ] } },
{ "type": "Feature", "properties": { "HydroID": 201493654, "staSeq": 16122, "locationNa": "Early Brook", "ylat": 41.4978, "xlong": -72.3435, "diatom": 1, "bug": 1, "NextDown": 201493686, "SqMi": 2.268428, "CFPct_1985": 0.649683544, "CFPct_1990": 0.629746835, "CFPct_1995": 0.611075949, "CFPct_2002": 0.549841772, "CFPct_2006": 0.530221519, "CFPct_2010": 0.506962025, "CFPct_2015": 0.523892405, "s_type": "DB" }, "geometry": { "type": "Point", "coordinates": [ -72.3435, 41.4978 ] } },
{ "type": "Feature", "properties": { "HydroID": 201493893, "staSeq": 16123, "locationNa": "Muddy Brook", "ylat": 41.4756, "xlong": -72.342, "diatom": 0, "bug": 1, "NextDown": 604481761, "SqMi": 1.368424, "CFPct_1985": 0.661938534, "CFPct_1990": 0.636459154, "CFPct_1995": 0.635671132, "CFPct_2002": 0.599684791, "CFPct_2006": 0.587601786, "CFPct_2010": 0.592067245, "CFPct_2015": 0.587339112, "s_type": "B" }, "geometry": { "type": "Point", "coordinates": [ -72.342, 41.4756 ] } },
{ "type": "Feature", "properties": { "HydroID": 201494065, "staSeq": 15315, "locationNa": "Burnham Brook", "ylat": 41.4603, "xlong": -72.3343, "diatom": 0, "bug": 1, "NextDown": 201494195, "SqMi": 1.249929, "CFPct_1985": 0.705882353, "CFPct_1990": 0.698134864, "CFPct_1995": 0.665710187, "CFPct_2002": 0.665710187, "CFPct_2006": 0.67517934, "CFPct_2010": 0.675753228, "CFPct_2015": 0.672022956, "s_type": "B" }, "geometry": { "type": "Point", "coordinates": [ -72.3343, 41.4603 ] } },
{ "type": "Feature", "properties": { "HydroID": 201494194, "staSeq": 18818, "locationNa": "Hedge Brook", "ylat": 41.453235, "xlong": -72.338713, "diatom": 0, "bug": 1, "NextDown": 604482677, "SqMi": 1.069233, "CFPct_1985": 0.734117647, "CFPct_1990": 0.733109244, "CFPct_1995": 0.731428571, "CFPct_2002": 0.714285714, "CFPct_2006": 0.698823529, "CFPct_2010": 0.700504202, "CFPct_2015": 0.710252101, "s_type": "B" }, "geometry": { "type": "Point", "coordinates": [ -72.338713, 41.453235 ] } },
{ "type": "Feature", "properties": { "HydroID": 201494218, "staSeq": 19957, "locationNa": "Merryall Brook", "ylat": 41.651682, "xlong": -73.44668, "diatom": 1, "bug": 0, "NextDown": 604483029, "SqMi": 3.057582, "CFPct_1985": 0.548076923, "CFPct_1990": 0.536819887, "CFPct_1995": 0.512898687, "CFPct_2002": 0.501993433, "CFPct_2006": 0.526969981, "CFPct_2010": 0.518292683, "CFPct_2015": 0.52380394, "s_type": "D" }, "geometry": { "type": "Point", "coordinates": [ -73.44668, 41.651682 ] } },
{ "type": "Feature", "properties": { "HydroID": 201494660, "staSeq": 17201, "locationNa": "Willys Meadow Brook", "ylat": 41.3811, "xlong": -72.1878, "diatom": 0, "bug": 1, "NextDown": 201494764, "SqMi": 1.069928, "CFPct_1985": 0.884757119, "CFPct_1990": 0.868676717, "CFPct_1995": 0.805360134, "CFPct_2002": 0.835510888, "CFPct_2006": 0.842546064, "CFPct_2010": 0.854941374, "CFPct_2015": 0.854941374, "s_type": "B" }, "geometry": { "type": "Point", "coordinates": [ -72.1878, 41.3811 ] } },
{ "type": "Feature", "properties": { "HydroID": 201494722, "staSeq": 14857, "locationNa": "Beaver Meadow Brook", "ylat": 41.4432, "xlong": -72.5454, "diatom": 1, "bug": 1, "NextDown": 201494547, "SqMi": 1.377111, "CFPct_1985": 0.623146944, "CFPct_1990": 0.609622887, "CFPct_1995": 0.601040312, "CFPct_2002": 0.579713914, "CFPct_2006": 0.532119636, "CFPct_2010": 0.521456437, "CFPct_2015": 0.516514954, "s_type": "DB" }, "geometry": { "type": "Point", "coordinates": [ -72.5454, 41.4432 ] } },
{ "type": "Feature", "properties": { "HydroID": 201494722, "staSeq": 19700, "locationNa": "Beaver Meadow Brook", "ylat": 41.45229, "xlong": -72.53605, "diatom": 0, "bug": 1, "NextDown": 201494547, "SqMi": 1.377111, "CFPct_1985": 0.623146944, "CFPct_1990": 0.609622887, "CFPct_1995": 0.601040312, "CFPct_2002": 0.579713914, "CFPct_2006": 0.532119636, "CFPct_2010": 0.521456437, "CFPct_2015": 0.516514954, "s_type": "B" }, "geometry": { "type": "Point", "coordinates": [ -72.53605, 41.45229 ] } },
{ "type": "Feature", "properties": { "HydroID": 201495052, "staSeq": 17409, "locationNa": "Saw Mill Brook", "ylat": 41.5757, "xlong": -73.4995, "diatom": 0, "bug": 1, "NextDown": 201495053, "SqMi": 2.348698, "CFPct_1985": 0.750954927, "CFPct_1990": 0.740106952, "CFPct_1995": 0.736592819, "CFPct_2002": 0.68342246, "CFPct_2006": 0.651031322, "CFPct_2010": 0.662948816, "CFPct_2015": 0.646600458, "s_type": "B" }, "geometry": { "type": "Point", "coordinates": [ -73.4995, 41.5757 ] } },
{ "type": "Feature", "properties": { "HydroID": 201495417, "staSeq": 14453, "locationNa": "Spruce Brook", "ylat": 41.4562, "xlong": -73.0626, "diatom": 0, "bug": 1, "NextDown": 1007477114, "SqMi": 2.300051, "CFPct_1985": 0.573410224, "CFPct_1990": 0.558603491, "CFPct_1995": 0.533354115, "CFPct_2002": 0.519170823, "CFPct_2006": 0.540835411, "CFPct_2010": 0.548472569, "CFPct_2015": 0.533354115, "s_type": "B" }, "geometry": { "type": "Point", "coordinates": [ -73.0626, 41.4562 ] } },
{ "type": "Feature", "properties": { "HydroID": 201495579, "staSeq": 16528, "locationNa": "BRANCH BROOK", "ylat": 41.395779, "xlong": -72.72126, "diatom": 0, "bug": 1, "NextDown": 1007477584, "SqMi": 4.517743, "CFPct_1985": 0.730088144, "CFPct_1990": 0.714444533, "CFPct_1995": 0.676963392, "CFPct_2002": 0.557373144, "CFPct_2006": 0.706424204, "CFPct_2010": 0.687286588, "CFPct_2015": 0.706662432, "s_type": "B" }, "geometry": { "type": "Point", "coordinates": [ -72.72126, 41.395779 ] } }
]
}
